{"type":"FeatureCollection","features":[{"type":"Feature","geometry":{"type":"Point","coordinates":[-8.96931667,39.54801111,38]},"properties":{"Nome":"Alcobaça / Estação Fruticultura Vieira Natividade","Número":726,"Tipo":"Estação Automática Climatológica (EMA II)","Município":"ALCOBAÇA","Início de funcionamento":"09-05-1996"}},{"type":"Feature","geometry":{"type":"Point","coordinates":[-7.76880556,37.43756944,290]},"properties":{"Nome":"Alcoutim - Martim Longo","Número":865,"Tipo":"Estação Automática Climatológica (EMA II)","Município":"ALCOUTIM","Início de funcionamento":"21-12-1999"}},{"type":"Feature","geometry":{"type":"Point","coordinates":[-8.48157222,38.36356389,29]},"properties":{"Nome":"Alcácer do Sal - Barrosinha","Número":776,"Tipo":"Estação Automática Climatológica (EMA II)","Município":"ALCÁCER DO SAL","Início de funcionamento":"15-05-1996"}},{"type":"Feature","geometry":{"type":"Point","coordinates":[-7.38931111,40.35425833,468]},"properties":{"Nome":"Aldeia Souto - Quinta Lageosa","Número":690,"Tipo":"Estação Automática Climatológica (EMA II)","Município":"COVILHÃ","Início de funcionamento":"21-01-2010"}},{"type":"Feature","geometry":{"type":"Point","coordinates":[-8.8018,37.32542778,16]},"properties":{"Nome":"Aljezur","Número":789,"Tipo":"Estação Automática Climatológica (EMA II)","Município":"ALJEZUR","Início de funcionamento":"27-11-2001"}},{"type":"Feature","geometry":{"type":"Point","coordinates":[-9.21286667,38.61698056,7]},"properties":{"Nome":"Almada - Praia da Rainha","Número":773,"Tipo":"Estação Automática Climatológica (EMA II)","Município":"ALMADA","Início de funcionamento":"26-11-2001"}},{"type":"Feature","geometry":{"type":"Point","coordinates":[-8.39438611,37.94680556,61]},"properties":{"Nome":"Alvalade","Número":783,"Tipo":"Estação Automática Climatológica (EMA II)","Município":"SANTIAGO DO CACÉM","Início de funcionamento":"28-05-1997"}},{"type":"Feature","geometry":{"type":"Point","coordinates":[-8.02697222,39.46110278,51]},"properties":{"Nome":"Alvega","Número":812,"Tipo":"Estação Automática Climatológica (EMA II)","Município":"ABRANTES","Início de funcionamento":"30-07-1999"}},{"type":"Feature","geometry":{"type":"Point","coordinates":[-9.24244167,38.75757778,143]},"properties":{"Nome":"Amadora","Número":935,"Tipo":"Estação Automática Urbana (RUEMA)","Município":"AMADORA","Início de funcionamento":"01-01-2002"}},{"type":"Feature","geometry":{"type":"Point","coordinates":[-7.22609722,38.2007,180]},"properties":{"Nome":"Amareleja","Número":851,"Tipo":"Estação Automática Climatológica (EMA II)","Município":"MOURA","Início de funcionamento":"20-02-2015"}},{"type":"Feature","geometry":{"type":"Point","coordinates":[-8.43994167,40.43885833,45]},"properties":{"Nome":"Anadia / Estação Vitivinícola da Bairrada","Número":705,"Tipo":"Estação Automática Climatológica (EMA II)","Município":"ANADIA","Início de funcionamento":"29-12-1999"}},{"type":"Feature","geometry":{"type":"Point","coordinates":[-27.22423889,38.659925,90]},"properties":{"Nome":"Angra do Heroísmo / Observatório José Agostinho","Número":511,"Tipo":"Estação Automática Principal (EMA I)","Município":"ANGRA DO HEROÍSMO","Início de funcionamento":"13-03-2000"}},{"type":"Feature","geometry":{"type":"Point","coordinates":[-8.41036111,39.89765278,405]},"properties":{"Nome":"Ansião","Número":716,"Tipo":"Estação Automática Climatológica (EMA II)","Município":"ANSIÃO","Início de funcionamento":"15-10-1999"}},{"type":"Feature","geometry":{"type":"Point","coordinates":[-8.26105278,40.92694167,270]},"properties":{"Nome":"Arouca","Número":669,"Tipo":"Estação Automática Climatológica (EMA II)","Município":"AROUCA","Início de funcionamento":"18-11-2013"}},{"type":"Feature","geometry":{"type":"Point","coordinates":[-8.65961111,40.6354,5]},"properties":{"Nome":"Aveiro / Universidade","Número":702,"Tipo":"Estação Automática Climatológica (EMA II)","Município":"AVEIRO","Início de funcionamento":"29-11-1996"}},{"type":"Feature","geometry":{"type":"Point","coordinates":[-7.87766111,39.1069,150]},"properties":{"Nome":"Avis - Benavila","Número":824,"Tipo":"Estação Automática Climatológica (EMA II)","Município":"AVIS","Início de funcionamento":"09-12-1999"}},{"type":"Feature","geometry":{"type":"Point","coordinates":[-9.06719722,38.65435,15]},"properties":{"Nome":"Barreiro","Número":928,"Tipo":"Estação Automática Urbana (RUEMA)","Município":"BARREIRO","Início de funcionamento":"01-01-2002"}},{"type":"Feature","geometry":{"type":"Point","coordinates":[-9.04762222,38.67449167,6]},"properties":{"Nome":"Barreiro - Lavradio","Número":766,"Tipo":"Estação Automática Climatológica (EMA II)","Município":"BARREIRO","Início de funcionamento":"05-11-1996"}},{"type":"Feature","geometry":{"type":"Point","coordinates":[-7.86731944,38.02572778,246]},"properties":{"Nome":"Beja","Número":562,"Tipo":"Estação Automática Principal (EMA I)","Município":"BEJA","Início de funcionamento":"01-01-1996"}},{"type":"Feature","geometry":{"type":"Point","coordinates":[-17.05768889,32.75646944,1560]},"properties":{"Nome":"Bica da Cana","Número":970,"Tipo":"Estação Automática Climatológica (EMA II)","Município":"Ponta do Sol","Início de funcionamento":"01-08-2010"}},{"type":"Feature","geometry":{"type":"Point","coordinates":[-8.45110833,41.57586944,65]},"properties":{"Nome":"Braga - Merelim","Número":622,"Tipo":"Estação Automática Climatológica (EMA II)","Município":"BRAGA","Início de funcionamento":"13-05-1996"}},{"type":"Feature","geometry":{"type":"Point","coordinates":[-6.74283056,41.80388333,690]},"properties":{"Nome":"Bragança","Número":575,"Tipo":"Estação Automática Principal (EMA I)","Município":"BRAGANÇA","Início de funcionamento":"01-01-1996"}},{"type":"Feature","geometry":{"type":"Point","coordinates":[-7.97955,41.48897222,350]},"properties":{"Nome":"Cabeceiras de Basto","Número":630,"Tipo":"Estação Automática Climatológica (EMA II)","Município":"CABECEIRAS DE BASTO","Início de funcionamento":"24-11-1999"}},{"type":"Feature","geometry":{"type":"Point","coordinates":[-9.40698056,39.36140833,32]},"properties":{"Nome":"Cabo Carvoeiro / Farol","Número":531,"Tipo":"Estação Automática Principal (EMA I)","Município":"PENICHE","Início de funcionamento":"01-01-1996"}},{"type":"Feature","geometry":{"type":"Point","coordinates":[-9.49753611,38.78171111,142]},"properties":{"Nome":"Cabo da Roca","Número":750,"Tipo":"Estação Automática Climatológica (EMA II)","Município":"SINTRA","Início de funcionamento":"09-05-2012"}},{"type":"Feature","geometry":{"type":"Point","coordinates":[-9.48541667,38.70903056,9]},"properties":{"Nome":"Cabo Raso / Farol","Número":765,"Tipo":"Estação Automática Climatológica (EMA II)","Município":"CASCAIS","Início de funcionamento":"04-11-1996"}},{"type":"Feature","geometry":{"type":"Point","coordinates":[-8.02698611,41.70971667,585]},"properties":{"Nome":"Cabril - S. Lourenço","Número":619,"Tipo":"Estação Automática Climatológica (EMA II)","Município":"MONTALEGRE","Início de funcionamento":"13-05-1996"}},{"type":"Feature","geometry":{"type":"Point","coordinates":[-16.70660556,32.74843333,133]},"properties":{"Nome":"Caniçal - São Lourenço","Número":978,"Tipo":"Estação Automática Climatológica (EMA II)","Município":"Machico","Início de funcionamento":"10-07-2009"}},{"type":"Feature","geometry":{"type":"Point","coordinates":[-7.29933333,41.24295,715]},"properties":{"Nome":"Carrazêda de Ansiães","Número":644,"Tipo":"Estação Automática Climatológica (EMA II)","Município":"CARRAZEDA DE ANSIÃES","Início de funcionamento":"21-12-2001"}},{"type":"Feature","geometry":{"type":"Point","coordinates":[-7.47869444,39.83944444,386]},"properties":{"Nome":"Castelo Branco","Número":570,"Tipo":"Estação Automática Principal (EMA I)","Município":"CASTELO BRANCO","Início de funcionamento":"01-01-1996"}},{"type":"Feature","geometry":{"type":"Point","coordinates":[-7.42546111,37.22951389,5]},"properties":{"Nome":"Castro Marim / Reserva Nacional do Sapal","Número":867,"Tipo":"Estação Automática Climatológica (EMA II)","Município":"CASTRO MARIM","Início de funcionamento":"23-09-1999"}},{"type":"Feature","geometry":{"type":"Point","coordinates":[-7.97223056,37.5765,225]},"properties":{"Nome":"Castro Verde - Neves Corvo","Número":864,"Tipo":"Estação Automática Climatológica (EMA II)","Município":"CASTRO VERDE","Início de funcionamento":"28-05-1997"}},{"type":"Feature","geometry":{"type":"Point","coordinates":[-7.46541111,41.7252,360]},"properties":{"Nome":"Chaves / Aeródromo","Número":616,"Tipo":"Estação Automática Climatológica (EMA II)","Município":"CHAVES","Início de funcionamento":"13-05-1996"}},{"type":"Feature","geometry":{"type":"Point","coordinates":[-16.91623333,32.722075,1590]},"properties":{"Nome":"Chão do Areeiro","Número":973,"Tipo":"Estação Automática Climatológica (EMA II)","Município":"Funchal","Início de funcionamento":"15-03-2002"}},{"type":"Feature","geometry":{"type":"Point","coordinates":[-8.45515278,40.21346944,35]},"properties":{"Nome":"Coimbra - Bencanta","Número":707,"Tipo":"Estação Automática Climatológica (EMA II)","Município":"COIMBRA","Início de funcionamento":"17-06-2009"}},{"type":"Feature","geometry":{"type":"Point","coordinates":[-8.46851667,40.1576,171]},"properties":{"Nome":"Coimbra / Aeródromo","Número":548,"Tipo":"Estação Automática Principal (EMA I)","Município":"COIMBRA","Início de funcionamento":"01-01-1996"}},{"type":"Feature","geometry":{"type":"Point","coordinates":[-9.460025,38.812575,25]},"properties":{"Nome":"Colares","Número":747,"Tipo":"Estação Automática Climatológica (EMA II)","Município":"SINTRA","Início de funcionamento":"13-02-2012"}},{"type":"Feature","geometry":{"type":"Point","coordinates":[-8.51325,38.94151944,25]},"properties":{"Nome":"Coruche / Estação de Regadio (INIA)","Número":744,"Tipo":"Estação Automática Climatológica (EMA II)","Município":"CORUCHE","Início de funcionamento":"07-11-1996"}},{"type":"Feature","geometry":{"type":"Point","coordinates":[-31.11264167,39.67081111,18]},"properties":{"marker-color":"#7e7e7e","marker-size":"medium","marker-symbol":"circle","Nome":"Corvo / Aeroporto","Número":502,"Tipo":"Estação Automática Principal (EMA I)","Município":"CORVO","Início de funcionamento":"11-05-2002"}},{"type":"Feature","geometry":{"type":"Point","coordinates":[-7.48220833,40.26434722,482]},"properties":{"Nome":"Covilhã","Número":687,"Tipo":"Estação Automática Climatológica (EMA II)","Município":"COVILHÃ","Início de funcionamento":"05-05-1999"}},{"type":"Feature","geometry":{"type":"Point","coordinates":[-9.0307527,38.8836,65]},"properties":{"Nome":"Detetor ALV","Número":537,"Tipo":"Detetor Descargas Elétricas","Município":"Alverca . Aeródromo","Início de funcionamento":"01-06-2006"}},{"type":"Feature","geometry":{"type":"Point","coordinates":[-8.44518,41.5864,138]},"properties":{"Nome":"Detetor BRG","Número":624,"Tipo":"Detetor Descargas Elétricas","Município":"BRAGA. Aeródromo - Palmeira","Início de funcionamento":"01-06-2006"}},{"type":"Feature","geometry":{"type":"Point","coordinates":[-7.4787,39.8393,449]},"properties":{"Nome":"Detetor CBR","Número":570,"Tipo":"Detetor Descargas Elétricas","Município":"Castelo Branco. Centro Coordenador","Início de funcionamento":"01-06-2006"}},{"type":"Feature","geometry":{"type":"Point","coordinates":[-7.8174,37.0305,79]},"properties":{"Nome":"Detetor OLH","Número":889,"Tipo":"Detetor Descargas Elétricas","Município":"Olhão. R. N. da Ria Formosa","Início de funcionamento":"01-06-2006"}},{"type":"Feature","geometry":{"type":"Point","coordinates":[-8.76159722,40.44595556,14]},"properties":{"Nome":"Dunas de Mira","Número":704,"Tipo":"Estação Automática Climatológica (EMA II)","Município":"MIRA","Início de funcionamento":"01-10-2009"}},{"type":"Feature","geometry":{"type":"Point","coordinates":[-7.14083333,38.8896,208]},"properties":{"Nome":"Elvas / Est. Melhoramento Plantas","Número":835,"Tipo":"Estação Automática Climatológica (EMA II)","Município":"ELVAS","Início de funcionamento":"08-11-1996"}},{"type":"Feature","geometry":{"type":"Point","coordinates":[-7.51275556,38.86213333,366]},"properties":{"Nome":"Estremoz - Techocas","Número":837,"Tipo":"Estação Automática Climatológica (EMA II)","Município":"ESTREMOZ","Início de funcionamento":"12-01-1995"}},{"type":"Feature","geometry":{"type":"Point","coordinates":[-7.97195278,37.01657778,8]},"properties":{"Nome":"Faro / Aeroporto","Número":554,"Tipo":"Estação Automática Principal (EMA I)","Município":"FARO","Início de funcionamento":"01-01-1996"}},{"type":"Feature","geometry":{"type":"Point","coordinates":[-8.80594444,40.13976389,4]},"properties":{"Nome":"Figueira da Foz - Vila Verde","Número":713,"Tipo":"Estação Automática Climatológica (EMA II)","Município":"FIGUEIRA DA FOZ","Início de funcionamento":"22-10-1999"}},{"type":"Feature","geometry":{"type":"Point","coordinates":[-6.94083056,40.83029722,635]},"properties":{"Nome":"Figueira de Castelo Rodrigo - V.Torpim","Número":671,"Tipo":"Estação Automática Climatológica (EMA II)","Município":"FIGUEIRA DE CASTELO RODRIGO","Início de funcionamento":"15-06-1999"}},{"type":"Feature","geometry":{"type":"Point","coordinates":[-31.13078611,39.4573,28]},"properties":{"Nome":"Flores / Aeroporto","Número":501,"Tipo":"Estação Automática Principal (EMA I)","Município":"SANTA CRUZ DAS FLORES","Início de funcionamento":"01-01-1996"}},{"type":"Feature","geometry":{"type":"Point","coordinates":[-8.59573333,37.3143,902]},"properties":{"Nome":"Foía","Número":790,"Tipo":"Estação Automática Climatológica (EMA II)","Município":"MONCHIQUE","Início de funcionamento":"18-01-2011"}},{"type":"Feature","geometry":{"type":"Point","coordinates":[-16.892483,32.647525,58]},"properties":{"Nome":"Funchal","Número":522,"Tipo":"Radiosondagem","Município":"Funchal. Observatório","Início de funcionamento":"-"}},{"type":"Feature","geometry":{"type":"Point","coordinates":[-16.93559167,32.63655,25]},"properties":{"Nome":"Funchal - Lido","Número":971,"Tipo":"Estação Automática Urbana (RUEMA)","Município":"Funchal","Início de funcionamento":"01-01-2002"}},{"type":"Feature","geometry":{"type":"Point","coordinates":[-16.89248333,32.647525,58]},"properties":{"Nome":"Funchal / Observatório","Número":522,"Tipo":"Estação Automática Principal (EMA I)","Município":"Funchal","Início de funcionamento":"01-01-1996"}},{"type":"Feature","geometry":{"type":"Point","coordinates":[-7.50362778,40.14063611,493]},"properties":{"Nome":"Fundão","Número":698,"Tipo":"Estação Automática Climatológica (EMA II)","Município":"FUNDÃO","Início de funcionamento":"21-01-2010"}},{"type":"Feature","geometry":{"type":"Point","coordinates":[-9.1284527,38.7661833,104]},"properties":{"Nome":"Gago Coutinho","Número":579,"Tipo":"Radiosondagem","Município":"Lisboa - Gago Coutinho","Início de funcionamento":"-"}},{"type":"Feature","geometry":{"type":"Point","coordinates":[-28.0292,39.0911,25]},"properties":{"Nome":"Graciosa / Aeródromo","Número":912,"Tipo":"Estação Automática Principal (EMA I)","Município":"SANTA CRUZ DA GRACIOSA","Início de funcionamento":"08-05-2002"}},{"type":"Feature","geometry":{"type":"Point","coordinates":[-7.278675,40.52855833,1020]},"properties":{"Nome":"Guarda","Número":683,"Tipo":"Estação Automática Climatológica (EMA II)","Município":"GUARDA","Início de funcionamento":"01-02-2000"}},{"type":"Feature","geometry":{"type":"Point","coordinates":[-28.62869167,38.52977778,60]},"properties":{"Nome":"Horta / Observatório Príncipe Alberto do Mónaco","Número":506,"Tipo":"Estação Automática Principal (EMA I)","Município":"HORTA","Início de funcionamento":"01-01-1996"}},{"type":"Feature","geometry":{"type":"Point","coordinates":[-27.0855,38.7677,112]},"properties":{"Nome":"Lajes. St. Rita","Número":508,"Tipo":"Radiosondagem","Município":"Praia da Vitória","Início de funcionamento":"-"}},{"type":"Feature","geometry":{"type":"Point","coordinates":[-8.19874722,42.04296667,880]},"properties":{"Nome":"Lamas de Mouro","Número":606,"Tipo":"Estação Automática Climatológica (EMA II)","Município":"MELGAÇO","Início de funcionamento":"18-11-1999"}},{"type":"Feature","geometry":{"type":"Point","coordinates":[-8.82096667,39.78055278,45]},"properties":{"Nome":"Leiria / Aeródromo","Número":718,"Tipo":"Estação Automática Climatológica (EMA II)","Município":"LEIRIA","Início de funcionamento":"28-12-2007"}},{"type":"Feature","geometry":{"type":"Point","coordinates":[-8.80983889,39.74434167,42]},"properties":{"Nome":"Leiria / Cidade","Número":916,"Tipo":"Estação Automática Urbana (RUEMA)","Município":"LEIRIA","Início de funcionamento":"01-05-2005"}},{"type":"Feature","geometry":{"type":"Point","coordinates":[-9.12749444,38.76620278,104]},"properties":{"Nome":"Lisboa - Gago Coutinho","Número":579,"Tipo":"Estação Automática Principal (EMA I)","Município":"LISBOA","Início de funcionamento":"01-01-1996"}},{"type":"Feature","geometry":{"type":"Point","coordinates":[-9.182825,38.70956111,62]},"properties":{"Nome":"Lisboa - Tapada da Ajuda","Número":762,"Tipo":"Estação Automática Climatológica (EMA II)","Município":"LISBOA","Início de funcionamento":"06-03-2009"}},{"type":"Feature","geometry":{"type":"Point","coordinates":[-9.14972222,38.71907778,77]},"properties":{"Nome":"Lisboa / Geofísico","Número":535,"Tipo":"Estação Automática Principal (EMA I)","Município":"LISBOA","Início de funcionamento":"12-07-1999"}},{"type":"Feature","geometry":{"type":"Point","coordinates":[-17.20208611,32.83145,931]},"properties":{"Nome":"Lombo da Terça","Número":980,"Tipo":"Estação Automática Climatológica (EMA II)","Município":"Porto Moniz","Início de funcionamento":"11-07-2009"}},{"type":"Feature","geometry":{"type":"Point","coordinates":[-8.24418333,40.143925,195]},"properties":{"Nome":"Lousã - Aeródromo","Número":697,"Tipo":"Estação Automática Climatológica (EMA II)","Município":"LOUSÃ","Início de funcionamento":"26-05-1997"}},{"type":"Feature","geometry":{"type":"Point","coordinates":[-17.09275,32.68122778,40]},"properties":{"Nome":"Lugar de Baixo","Número":986,"Tipo":"Estação Automática Climatológica (EMA II)","Município":"Ponta do Sol","Início de funcionamento":"14-03-2002"}},{"type":"Feature","geometry":{"type":"Point","coordinates":[-8.24895833,41.14588611,250]},"properties":{"Nome":"Luzim","Número":657,"Tipo":"Estação Automática Climatológica (EMA II)","Município":"PENAFIEL","Início de funcionamento":"22-12-2009"}},{"type":"Feature","geometry":{"type":"Point","coordinates":[-6.78726389,41.56765556,702]},"properties":{"Nome":"Macedo de Cavaleiros - Izeda-Morais","Número":633,"Tipo":"Estação Automática Climatológica (EMA II)","Município":"MACEDO DE CAVALEIROS","Início de funcionamento":"07-12-1999"}},{"type":"Feature","geometry":{"type":"Point","coordinates":[-6.271525,41.49882222,693]},"properties":{"Nome":"Miranda do Douro","Número":635,"Tipo":"Estação Automática Climatológica (EMA II)","Município":"MIRANDA DO DOURO","Início de funcionamento":"09-06-1999"}},{"type":"Feature","geometry":{"type":"Point","coordinates":[-7.19083889,41.51478611,250]},"properties":{"Nome":"Mirandela","Número":632,"Tipo":"Estação Automática Climatológica (EMA II)","Município":"MIRANDELA","Início de funcionamento":"23-07-1999"}},{"type":"Feature","geometry":{"type":"Point","coordinates":[-6.72628611,41.33511111,644]},"properties":{"Nome":"Mogadouro","Número":637,"Tipo":"Estação Automática Climatológica (EMA II)","Município":"MOGADOURO","Início de funcionamento":"11-06-1999"}},{"type":"Feature","geometry":{"type":"Point","coordinates":[-7.60387778,40.98566111,715]},"properties":{"Nome":"Moimenta da Beira","Número":663,"Tipo":"Estação Automática Climatológica (EMA II)","Município":"MOIMENTA DA BEIRA","Início de funcionamento":"07-12-2001"}},{"type":"Feature","geometry":{"type":"Point","coordinates":[-7.018525,41.18986944,600]},"properties":{"Nome":"Moncorvo","Número":654,"Tipo":"Estação Automática Climatológica (EMA II)","Município":"TORRE DE MONCORVO","Início de funcionamento":"07-12-2001"}},{"type":"Feature","geometry":{"type":"Point","coordinates":[-7.78789167,41.82278333,1005]},"properties":{"Nome":"Montalegre","Número":611,"Tipo":"Estação Automática Climatológica (EMA II)","Município":"MONTALEGRE","Início de funcionamento":"14-05-1999"}},{"type":"Feature","geometry":{"type":"Point","coordinates":[-8.38096944,42.07336111,80]},"properties":{"Nome":"Monção - Valinha","Número":605,"Tipo":"Estação Automática Climatológica (EMA II)","Município":"MONÇÃO","Início de funcionamento":"14-05-1996"}},{"type":"Feature","geometry":{"type":"Point","coordinates":[-8.16405833,38.94068333,110]},"properties":{"Nome":"Mora","Número":826,"Tipo":"Estação Automática Climatológica (EMA II)","Município":"MORA","Início de funcionamento":"03-09-2009"}},{"type":"Feature","geometry":{"type":"Point","coordinates":[-7.55151944,37.75750833,190]},"properties":{"Nome":"Mértola - Vale Formoso","Número":863,"Tipo":"Estação Automática Climatológica (EMA II)","Município":"MÉRTOLA","Início de funcionamento":"27-05-1997"}},{"type":"Feature","geometry":{"type":"Point","coordinates":[-7.85547222,40.52349722,425]},"properties":{"Nome":"Nelas","Número":685,"Tipo":"Estação Automática Climatológica (EMA II)","Município":"NELAS","Início de funcionamento":"28-12-1996"}},{"type":"Feature","geometry":{"type":"Point","coordinates":[-25.14934444,37.82882778,140]},"properties":{"Nome":"Nordeste - S.Miguel","Número":932,"Tipo":"Estação Automática Climatológica (EMA II)","Município":"NORDESTE","Início de funcionamento":"01-05-2002"}},{"type":"Feature","geometry":{"type":"Point","coordinates":[-8.72899167,37.54710833,76]},"properties":{"Nome":"Odemira - S. Teotónio","Número":577,"Tipo":"Estação Automática Climatológica (EMA II)","Município":"ODEMIRA","Início de funcionamento":"09-09-1999"}},{"type":"Feature","geometry":{"type":"Point","coordinates":[-7.82096667,37.03295278,7]},"properties":{"Nome":"Olhão / EPPO","Número":881,"Tipo":"Estação Automática Climatológica (EMA II)","Município":"OLHÃO","Início de funcionamento":"01-01-2008"}},{"type":"Feature","geometry":{"type":"Point","coordinates":[-7.92703889,40.14565278,890]},"properties":{"Nome":"Pampilhosa da Serra","Número":686,"Tipo":"Estação Automática Climatológica (EMA II)","Município":"PAMPILHOSA DA SERRA","Início de funcionamento":"06-12-2001"}},{"type":"Feature","geometry":{"type":"Point","coordinates":[-8.635025,38.65079444,64]},"properties":{"Nome":"Pegões","Número":767,"Tipo":"Estação Automática Climatológica (EMA II)","Município":"PALMELA","Início de funcionamento":"15-12-2009"}},{"type":"Feature","geometry":{"type":"Point","coordinates":[-7.55865278,40.41136667,1380]},"properties":{"Nome":"Penhas Douradas / Observatório","Número":568,"Tipo":"Estação Automática Principal (EMA I)","Município":"MANTEIGAS","Início de funcionamento":"01-01-1996"}},{"type":"Feature","geometry":{"type":"Point","coordinates":[-28.44482222,38.55325556,33]},"properties":{"Nome":"Pico / Aeródromo","Número":922,"Tipo":"Estação Automática Principal (EMA I)","Município":"MADALENA","Início de funcionamento":"11-05-2002"}},{"type":"Feature","geometry":{"type":"Point","coordinates":[-16.90388889,32.69444444,1118]},"properties":{"Nome":"Pico Alto","Número":972,"Tipo":"Estação Automática Climatológica (EMA II)","Município":"Funchal","Início de funcionamento":"01-01-2015"}},{"type":"Feature","geometry":{"type":"Point","coordinates":[-16.92831667,32.73523333,1799]},"properties":{"Nome":"Pico do Areeiro","Número":974,"Tipo":"Estação Automática Climatológica (EMA II)","Município":"Santana","Início de funcionamento":"01-01-2015"}},{"type":"Feature","geometry":{"type":"Point","coordinates":[-7.54897222,41.172775,130]},"properties":{"Nome":"Pinhão","Número":655,"Tipo":"Estação Automática Climatológica (EMA II)","Município":"SÃO JOÃO DA PESQUEIRA","Início de funcionamento":"30-11-2009"}},{"type":"Feature","geometry":{"type":"Point","coordinates":[-16.90621944,32.83446944,257]},"properties":{"Nome":"Ponta de S. Jorge","Número":960,"Tipo":"Estação Automática Climatológica (EMA II)","Município":"Santana","Início de funcionamento":"14-03-2002"}},{"type":"Feature","geometry":{"type":"Point","coordinates":[-25.70799167,37.74412222,77]},"properties":{"Nome":"Ponta Delgada - Nordela","Número":512,"Tipo":"Estação Automática Principal (EMA I)","Município":"PONTA DELGADA","Início de funcionamento":"01-01-1996"}},{"type":"Feature","geometry":{"type":"Point","coordinates":[-25.66266667,37.746575,35]},"properties":{"Nome":"Ponta Delgada / Observatório Afonso Chaves","Número":513,"Tipo":"Estação Automática Climatológica (EMA II)","Município":"PONTA DELGADA","Início de funcionamento":"25-11-2009"}},{"type":"Feature","geometry":{"type":"Point","coordinates":[-17.26321389,32.81384167,298]},"properties":{"Nome":"Ponta do Pargo","Número":990,"Tipo":"Estação Automática Climatológica (EMA II)","Município":"Calheta","Início de funcionamento":"14-03-2002"}},{"type":"Feature","geometry":{"type":"Point","coordinates":[-8.57138889,41.76383889,40]},"properties":{"Nome":"Ponte de Lima / Escola Agrícola","Número":615,"Tipo":"Estação Automática Climatológica (EMA II)","Município":"PONTE DE LIMA","Início de funcionamento":"02-06-1999"}},{"type":"Feature","geometry":{"type":"Point","coordinates":[-7.42131667,39.29418333,597]},"properties":{"Nome":"Portalegre","Número":571,"Tipo":"Estação Automática Principal (EMA I)","Município":"PORTALEGRE","Início de funcionamento":"01-01-1996"}},{"type":"Feature","geometry":{"type":"Point","coordinates":[-7.42088333,39.26754444,376]},"properties":{"Nome":"Portalegre / Cidade","Número":820,"Tipo":"Estação Automática Urbana (RUEMA)","Município":"PORTALEGRE","Início de funcionamento":"27-10-2010"}},{"type":"Feature","geometry":{"type":"Point","coordinates":[-7.86075278,38.31759444,205]},"properties":{"Nome":"Portel - Oriola","Número":848,"Tipo":"Estação Automática Climatológica (EMA II)","Município":"PORTEL","Início de funcionamento":"03-12-1999"}},{"type":"Feature","geometry":{"type":"Point","coordinates":[-8.58328333,37.14748056,2]},"properties":{"Nome":"Portimão / Aeródromo","Número":878,"Tipo":"Estação Automática Climatológica (EMA II)","Município":"PORTIMÃO","Início de funcionamento":"10-12-1999"}},{"type":"Feature","geometry":{"type":"Point","coordinates":[-8.62598056,41.15256667,74]},"properties":{"Nome":"Porto - Massarelos","Número":903,"Tipo":"Estação Automática Urbana (RUEMA)","Município":"PORTO","Início de funcionamento":"01-01-2002"}},{"type":"Feature","geometry":{"type":"Point","coordinates":[-8.67910833,41.232275,69]},"properties":{"Nome":"Porto - Pedras Rubras","Número":545,"Tipo":"Estação Automática Principal (EMA I)","Município":"MATOSINHOS","Início de funcionamento":"01-01-1996"}},{"type":"Feature","geometry":{"type":"Point","coordinates":[-8.64445,41.18445278,90]},"properties":{"Nome":"Porto - S.Gens","Número":649,"Tipo":"Estação Automática Climatológica (EMA II)","Município":"MATOSINHOS","Início de funcionamento":"24-09-2009"}},{"type":"Feature","geometry":{"type":"Point","coordinates":[-8.6025,41.13851944,93]},"properties":{"Nome":"Porto - Serra do Pilar","Número":546,"Tipo":"Estação Automática Urbana (RUEMA)","Município":"VILA NOVA DE GAIA","Início de funcionamento":"01-02-2009"}},{"type":"Feature","geometry":{"type":"Point","coordinates":[-17.16795,32.86735,35]},"properties":{"Nome":"Porto Moniz","Número":956,"Tipo":"Estação Automática Climatológica (EMA II)","Município":"Porto Moniz","Início de funcionamento":"07-03-2014"}},{"type":"Feature","geometry":{"type":"Point","coordinates":[-16.34848333,33.07145833,82]},"properties":{"Nome":"Porto Santo / Aeroporto","Número":524,"Tipo":"Estação Automática Principal (EMA I)","Município":"Porto Santo","Início de funcionamento":"01-01-1996"}},{"type":"Feature","geometry":{"type":"Point","coordinates":[-7.87055556,39.72857222,379]},"properties":{"Nome":"Proença-a-Nova - Moitas","Número":806,"Tipo":"Estação Automática Climatológica (EMA II)","Município":"PROENÇA-A-NOVA","Início de funcionamento":"26-05-1997"}},{"type":"Feature","geometry":{"type":"Point","coordinates":[-17.01503611,32.66297222,580]},"properties":{"Nome":"Quinta Grande","Número":984,"Tipo":"Estação Automática Climatológica (EMA II)","Município":"Câmara de Lobos","Início de funcionamento":"01-08-2010"}},{"type":"Feature","geometry":{"type":"Point","coordinates":[-7.47291667,38.48486667,249]},"properties":{"Nome":"Reguengos - S.Pedro do Corval","Número":840,"Tipo":"Estação Automática Climatológica (EMA II)","Município":"REGUENGOS DE MONSARAZ","Início de funcionamento":"27-01-2010"}},{"type":"Feature","geometry":{"type":"Point","coordinates":[-8.92357778,39.31391944,69]},"properties":{"Nome":"Rio Maior / ETAR","Número":729,"Tipo":"Estação Automática Climatológica (EMA II)","Município":"RIO MAIOR","Início de funcionamento":"15-05-1996"}},{"type":"Feature","geometry":{"type":"Point","coordinates":[-7.03693333,40.33918056,858]},"properties":{"marker-color":"#7e7e7e","marker-size":"medium","marker-symbol":"","Nome":"Sabugal - Martim Rei","Número":800,"Tipo":"Estação Automática Climatológica (EMA II)","Município":"SABUGAL","Início de funcionamento":"18-06-1999"}},{"type":"Feature","geometry":{"type":"Point","coordinates":[-8.94908889,37.01283611,25]},"properties":{"Nome":"Sagres / Quartel da Marinha","Número":533,"Tipo":"Estação Automática Principal (EMA I)","Município":"VILA DO BISPO","Início de funcionamento":"01-01-1996"}},{"type":"Feature","geometry":{"type":"Point","coordinates":[-16.77620833,32.69316667,58]},"properties":{"Nome":"Santa Catarina / Aeroporto","Número":521,"Tipo":"Estação Automática Principal (EMA I)","Município":"Santa Cruz","Início de funcionamento":"14-11-2014"}},{"type":"Feature","geometry":{"type":"Point","coordinates":[-9.37903889,39.12594167,38]},"properties":{"Nome":"Santa Cruz / Aeródromo","Número":746,"Tipo":"Estação Automática Climatológica (EMA II)","Município":"TORRES VEDRAS","Início de funcionamento":"30-12-2009"}},{"type":"Feature","geometry":{"type":"Point","coordinates":[-25.17279444,36.97319444,96]},"properties":{"Nome":"Santa Maria / Aeroporto","Número":515,"Tipo":"Estação Automática Principal (EMA I)","Município":"VILA DO PORTO","Início de funcionamento":"25-04-2002"}},{"type":"Feature","geometry":{"type":"Point","coordinates":[-16.88641667,32.80823889,380]},"properties":{"Nome":"Santana","Número":965,"Tipo":"Estação Automática Climatológica (EMA II)","Município":"Santana","Início de funcionamento":"01-08-2010"}},{"type":"Feature","geometry":{"type":"Point","coordinates":[-8.73666111,39.20126111,73]},"properties":{"Nome":"Santarém - Fonte Boa / Est. Zootécnica","Número":734,"Tipo":"Estação Automática Climatológica (EMA II)","Município":"SANTARÉM","Início de funcionamento":"15-05-1996"}},{"type":"Feature","geometry":{"type":"Point","coordinates":[-16.81682222,32.72589722,660]},"properties":{"Nome":"Santo da Serra","Número":975,"Tipo":"Estação Automática Climatológica (EMA II)","Município":"Machico","Início de funcionamento":"01-08-2010"}},{"type":"Feature","geometry":{"type":"Point","coordinates":[-15.87104167,30.14536944,150]},"properties":{"Nome":"Selvagem Grande","Número":520,"Tipo":"Estação Automática Climatológica (EMA II)","Município":"Funchal","Início de funcionamento":"23-08-2016"}},{"type":"Feature","geometry":{"type":"Point","coordinates":[-8.88104167,38.52385,32]},"properties":{"Nome":"Setúbal","Número":929,"Tipo":"Estação Automática Urbana (RUEMA)","Município":"SETÚBAL","Início de funcionamento":"01-01-2002"}},{"type":"Feature","geometry":{"type":"Point","coordinates":[-8.89078333,38.54849722,35]},"properties":{"Nome":"Setúbal / Estação de Fruticultura","Número":770,"Tipo":"Estação Automática Climatológica (EMA II)","Município":"SETÚBAL","Início de funcionamento":"06-11-1996"}},{"type":"Feature","geometry":{"type":"Point","coordinates":[-8.83827222,37.95450278,103]},"properties":{"Nome":"Sines - Monte Chãos","Número":541,"Tipo":"Estação Automática Principal (EMA I)","Município":"SINES","Início de funcionamento":"01-01-1996"}},{"type":"Feature","geometry":{"type":"Point","coordinates":[-28.17081667,38.66418889,99]},"properties":{"Nome":"São Jorge / Aeródromo","Número":927,"Tipo":"Estação Automática Climatológica (EMA II)","Município":"VELAS","Início de funcionamento":"14-09-2012"}},{"type":"Feature","geometry":{"type":"Point","coordinates":[-9.03058889,39.76361944,40]},"properties":{"Nome":"São Pedro de Moel","Número":721,"Tipo":"Estação Automática Climatológica (EMA II)","Município":"MARINHA GRANDE","Início de funcionamento":"06-01-2010"}},{"type":"Feature","geometry":{"type":"Point","coordinates":[-17.04472222,32.80018333,97]},"properties":{"Nome":"São Vicente","Número":967,"Tipo":"Estação Automática Climatológica (EMA II)","Município":"São Vicente","Início de funcionamento":"01-08-2010"}},{"type":"Feature","geometry":{"type":"Point","coordinates":[-8.373975,39.59212778,75]},"properties":{"Nome":"Tomar - Vale Donas","Número":724,"Tipo":"Estação Automática Climatológica (EMA II)","Município":"TOMAR","Início de funcionamento":"10-05-1996"}},{"type":"Feature","geometry":{"type":"Point","coordinates":[-9.179,39.04389444,110]},"properties":{"Nome":"Torres Vedras - Dois Portos","Número":739,"Tipo":"Estação Automática Climatológica (EMA II)","Município":"TORRES VEDRAS","Início de funcionamento":"12-01-1995"}},{"type":"Feature","geometry":{"type":"Point","coordinates":[-7.357375,40.78116667,840]},"properties":{"Nome":"Trancoso / Bandarra","Número":666,"Tipo":"Estação Automática Climatológica (EMA II)","Município":"TRANCOSO","Início de funcionamento":"03-06-1999"}},{"type":"Feature","geometry":{"type":"Point","coordinates":[-8.04553889,38.33191944,202]},"properties":{"Nome":"Viana do Alentejo","Número":847,"Tipo":"Estação Automática Climatológica (EMA II)","Município":"VIANA DO ALENTEJO","Início de funcionamento":"18-01-2011"}},{"type":"Feature","geometry":{"type":"Point","coordinates":[-8.80460556,41.648875,48]},"properties":{"Nome":"Viana do Castelo - Chafé","Número":551,"Tipo":"Estação Automática Principal (EMA I)","Município":"VIANA DO CASTELO","Início de funcionamento":"01-03-2006"}},{"type":"Feature","geometry":{"type":"Point","coordinates":[-8.829575,41.69504722,18]},"properties":{"Nome":"Viana do Castelo / Cidade","Número":610,"Tipo":"Estação Automática Urbana (RUEMA)","Município":"VIANA DO CASTELO","Início de funcionamento":"02-03-2011"}},{"type":"Feature","geometry":{"type":"Point","coordinates":[-8.67621111,41.97313056,34]},"properties":{"Nome":"Vila Nova de Cerveira / Aeródromo","Número":604,"Tipo":"Estação Automática Climatológica (EMA II)","Município":"VILA NOVA DE CERVEIRA","Início de funcionamento":"25-04-1999"}},{"type":"Feature","geometry":{"type":"Point","coordinates":[-7.71711389,41.27420833,561]},"properties":{"Nome":"Vila Real / Aeródromo","Número":567,"Tipo":"Estação Automática Principal (EMA I)","Município":"VILA REAL","Início de funcionamento":"01-01-1996"}},{"type":"Feature","geometry":{"type":"Point","coordinates":[-7.74052222,41.30898056,481]},"properties":{"Nome":"Vila Real / Cidade","Número":566,"Tipo":"Estação Automática Urbana (RUEMA)","Município":"VILA REAL","Início de funcionamento":"31-05-2010"}},{"type":"Feature","geometry":{"type":"Point","coordinates":[-7.416325,37.18710556,11]},"properties":{"Nome":"Vila Real de S.António","Número":866,"Tipo":"Estação Automática Climatológica (EMA II)","Município":"VILA REAL DE SANTO ANTÓNIO","Início de funcionamento":"18-01-2011"}},{"type":"Feature","geometry":{"type":"Point","coordinates":[-7.00344167,41.8434,773]},"properties":{"Nome":"Vinhais","Número":612,"Tipo":"Estação Automática Climatológica (EMA II)","Município":"VINHAIS","Início de funcionamento":"27-08-2010"}},{"type":"Feature","geometry":{"type":"Point","coordinates":[-7.89591667,40.71492778,636]},"properties":{"Nome":"Viseu / Aeródromo","Número":560,"Tipo":"Estação Automática Principal (EMA I)","Município":"VISEU","Início de funcionamento":"01-01-1996"}},{"type":"Feature","geometry":{"type":"Point","coordinates":[-7.90396944,40.66273889,443]},"properties":{"Nome":"Viseu / Cidade","Número":675,"Tipo":"Estação Automática Urbana (RUEMA)","Município":"VISEU","Início de funcionamento":"31-03-2011"}},{"type":"Feature","geometry":{"type":"Point","coordinates":[-8.74286944,37.58195833,67]},"properties":{"Nome":"Zambujeira","Número":788,"Tipo":"Estação Automática Climatológica (EMA II)","Município":"ODEMIRA","Início de funcionamento":"05-02-2010"}},{"type":"Feature","geometry":{"type":"Point","coordinates":[-7.06858333,39.84955556,374]},"properties":{"Nome":"Zebreira","Número":803,"Tipo":"Estação Automática Climatológica (EMA II)","Município":"IDANHA-A-NOVA","Início de funcionamento":"07-07-1999"}},{"type":"Feature","geometry":{"type":"Point","coordinates":[-7.88795833,38.53654167,246]},"properties":{"Nome":"Évora / Aeródromo","Número":558,"Tipo":"Estação Automática Principal (EMA I)","Município":"ÉVORA","Início de funcionamento":"01-01-1996"}}]}